City_ID,City,Lat,Lng,Max Temp,Humidity,Cloudiness,Wind Speed,Country,Date
0,hermanus,-34.4187,19.2345,294.21,61,6,9.08,ZA,1700667919
1,grytviken,-54.2811,-36.5092,274.6,100,100,2.58,GS,1700667920
2,ilulissat,69.2167,-51.1,268.16,68,75,7.2,GL,1700667921
3,edinburgh of the seven seas,-37.0676,-12.3116,287.02,79,54,9.23,SH,1700667921
4,dalbandin,28.8947,64.4101,295.36,40,2,4.0,PK,1700667922
5,taksimo,56.3444,114.8794,252.65,89,100,1.21,RU,1700667923
6,mamadysh,55.7152,51.408,265.75,94,100,7.71,RU,1700667924
7,whitehorse,60.7161,-135.0538,267.58,92,40,10.29,CA,1700667925
8,yoloten,37.2989,62.3597,284.71,46,8,2.49,TM,1700667925
9,klyuchi,52.2667,79.1667,269.75,50,100,5.35,RU,1700667926
10,lazaro cardenas,17.9583,-102.2,301.07,69,95,1.78,MX,1700667928
11,east london,-33.0153,27.9116,298.67,73,0,4.12,ZA,1700667929
12,cooma,-36.2333,149.1333,284.57,94,53,0.54,AU,1700667930
13,nikolayevsk-on-amure,53.1406,140.73,259.21,90,65,2.49,RU,1700667931
14,armacao de buzios,-22.7469,-41.8817,306.24,75,33,9.5,BR,1700667932
15,ushuaia,-54.8,-68.3,280.94,71,40,11.18,AR,1700667933
16,west island,-12.1568,96.8225,299.14,83,100,4.63,CC,1700667933
17,massawa,15.6097,39.45,302.6,71,92,2.23,ER,1700667934
18,misratah,32.3754,15.0925,297.06,32,69,6.17,LY,1700667935
19,sinop,41.7711,34.8709,282.87,65,100,5.85,TR,1700667936
20,happy valley-goose bay,53.3168,-60.3315,267.32,73,75,4.12,CA,1700667937
21,port-aux-francais,-49.35,70.2167,277.2,78,65,8.21,TF,1700667937
22,beryozovsky,56.9083,60.8019,267.01,85,40,3.0,RU,1700667938
23,thompson,55.7435,-97.8558,256.24,78,0,5.14,CA,1700667939
24,oeiras,-7.0253,-42.1311,305.43,47,42,2.61,BR,1700667940
25,blackmans bay,-43.0167,147.3167,282.22,92,18,0.45,AU,1700667941
26,papatowai,-46.5619,169.4708,285.43,98,95,1.66,NZ,1700667942
27,lebu,-37.6167,-73.65,286.98,60,24,6.17,CL,1700667943
28,mapimi,25.8167,-103.85,281.8,59,55,2.77,MX,1700667943
29,margaret river,-33.95,115.0667,294.92,43,3,7.47,AU,1700667944
30,adamstown,-25.066,-130.1015,293.65,66,0,3.07,PN,1700667945
31,baryshivka,50.361,31.3217,270.03,56,99,3.52,UA,1700667946
32,colonia,50.9333,6.95,280.35,63,0,1.54,DE,1700667947
33,tiksi,71.6872,128.8694,241.76,99,62,2.66,RU,1700667947
34,albany,42.6001,-73.9662,277.95,94,100,0.89,US,1700667926
35,villa de soto,-30.8552,-64.9995,300.59,35,33,5.34,AR,1700667949
36,rakvere,59.3464,26.3558,267.92,76,50,5.94,EE,1700667950
37,lompoc,34.6391,-120.4579,291.4,69,0,4.12,US,1700667950
38,invercargill,-46.4,168.35,285.38,97,99,0.89,NZ,1700667951
39,basco,20.4487,121.9702,299.13,71,94,7.24,PH,1700667952
40,kimbe,-5.5502,150.1429,297.27,94,30,1.94,PG,1700667953
41,doganyol,38.3118,39.0382,279.96,63,35,1.44,TR,1700667953
42,waitangi,-43.9535,-176.5597,282.49,67,100,4.5,NZ,1700667954
43,puerto natales,-51.7236,-72.4875,284.4,40,75,7.2,CL,1700667955
44,bardai,11.65,7.2333,304.32,20,100,0.71,NG,1700667956
45,kudat,6.8837,116.8477,300.11,94,79,1.03,MY,1700667956
46,bethel,41.3712,-73.414,282.71,88,100,3.6,US,1700667957
47,saint-philippe,-21.3585,55.7679,297.92,85,76,5.46,RE,1700667958
48,saipan,15.1355,145.701,300.54,78,40,4.12,MP,1700667959
49,tolanaro,-25.0319,46.9987,300.19,74,20,11.83,MG,1700667959
50,hassi messaoud,31.6804,6.0729,293.07,32,0,7.72,DZ,1700667960
51,huarmey,-10.0681,-78.1522,295.77,74,26,5.11,PE,1700667961
52,anadyr,64.75,177.4833,274.43,100,100,7.0,RU,1700667962
53,praia da vitoria,38.7333,-27.0667,293.01,88,40,10.15,PT,1700667963
54,susuman,62.7833,148.1667,251.86,98,100,2.51,RU,1700667963
55,port saint john's,-31.6229,29.5448,297.85,81,0,2.93,ZA,1700667964
56,mount isa,-20.7333,139.5,296.02,83,100,2.57,AU,1700667965
57,as sulayyil,20.4607,45.5779,302.29,33,5,6.13,SA,1700667966
58,kutum,14.2,24.6667,299.01,20,59,3.66,SD,1700667967
59,sijunjung,-0.6876,100.9537,295.48,94,100,0.32,ID,1700667967
60,poronaysk,49.2167,143.1167,272.54,70,100,3.35,RU,1700667968
61,antsiranana,-12.2787,49.2917,301.57,69,40,9.26,MG,1700667970
62,garachico,28.7781,-17.7646,295.21,73,100,1.54,ES,1700667971
63,ust-tsilma,65.441,52.1498,256.82,95,100,1.34,RU,1700667971
64,alexandria,31.2156,29.9553,294.45,56,4,7.95,EG,1700667722
65,sitka,57.0531,-135.33,280.09,70,100,5.14,US,1700667973
66,georgetown,5.4112,100.3354,300.11,84,20,2.06,MY,1700667612
67,ribeira grande,38.5167,-28.7,292.47,88,40,8.23,PT,1700667974
68,pasto,1.2136,-77.2811,288.24,60,100,2.97,CO,1700667975
69,isafjordur,66.0755,-23.124,273.17,93,100,4.12,IS,1700667977
70,broome,42.2506,-75.833,280.94,95,100,2.57,US,1700667978
71,tadine,-21.55,167.8833,293.5,74,24,4.78,NC,1700667979
72,bilibino,68.0546,166.4372,254.2,94,100,3.53,RU,1700667979
73,brookings,44.3114,-96.7984,278.2,64,0,6.17,US,1700667702
74,saint pete beach,27.7253,-82.7412,300.51,89,100,4.12,US,1700667981
75,belmonte,-15.8631,-38.8828,301.77,62,22,5.21,BR,1700667982
76,puerto ayora,-0.7393,-90.3518,300.13,89,56,4.02,EC,1700667983
77,micheweni,-4.9667,39.8333,299.66,85,94,4.55,TZ,1700667984
78,leh,34.1667,77.5833,273.36,29,0,0.98,IN,1700667985
79,pyhaselka,62.4333,29.9667,265.98,91,60,4.85,FI,1700667985
80,sretensk,52.2453,117.7093,260.99,75,100,1.46,RU,1700667986
81,las tablas,7.7667,-80.2833,301.77,74,51,2.96,PA,1700667987
82,pamukkale,37.9164,29.1173,286.84,89,100,1.45,TR,1700667988
83,pisco,-13.7,-76.2167,297.05,78,20,4.12,PE,1700667988
84,tucuma,-0.1833,-50.05,305.47,51,50,4.48,BR,1700667913
85,yellowknife,62.456,-114.3525,249.44,84,0,2.06,CA,1700667691
86,bredasdorp,-34.5322,20.0403,298.78,42,0,8.07,ZA,1700667991
87,okhotsk,59.3833,143.3,256.9,78,100,5.67,RU,1700667992
88,keflavik,64.0049,-22.5624,276.1,87,75,21.09,IS,1700667992
89,arkhangel'sk,64.5401,40.5433,257.66,99,68,1.05,RU,1700667993
90,talnakh,69.4865,88.3972,247.6,99,100,3.49,RU,1700667994
91,vorgashor,67.5833,63.95,258.46,88,100,4.24,RU,1700667995
92,ubari,26.5921,12.7805,295.11,17,0,4.11,LY,1700667996
93,dudinka,69.4058,86.1778,247.89,98,100,4.95,RU,1700667996
94,nemuro,43.3236,145.575,282.85,87,27,4.07,JP,1700667997
95,morehead city,34.7229,-76.726,294.18,89,100,5.14,US,1700667727
96,barakani,-12.1356,44.4317,300.73,80,100,2.48,KM,1700667999
97,port alfred,-33.5906,26.891,297.14,82,1,0.89,ZA,1700668000
98,nuevo casas grandes,30.4167,-107.9167,280.67,37,0,2.94,MX,1700668001
99,gualdo tadino,43.2317,12.781,283.97,83,100,16.54,IT,1700668002
100,tinongan,10.215,123.0353,298.04,89,93,1.31,PH,1700668003
101,tamanrasset,22.785,5.5228,296.1,10,0,5.14,DZ,1700668003
102,chonchi,-42.6128,-73.8092,288.77,55,82,1.52,CL,1700668004
103,puerto el triunfo,13.2833,-88.55,302.38,62,94,0.3,SV,1700668005
104,howard springs,-12.497,131.047,299.1,75,9,1.56,AU,1700668006
105,mermoz boabab,14.7065,-17.4758,310.46,45,0,3.09,SN,1700668006
106,ambovombe,-25.1667,46.0833,299.75,63,0,5.24,MG,1700668007
107,college,64.8569,-147.8028,255.33,81,20,0.0,US,1700668008
108,saldanha,-33.0117,17.9442,297.18,74,0,4.94,ZA,1700668009
109,saint-pierre,-21.3393,55.4781,297.97,78,75,9.77,RE,1700668010
110,manhattan,40.7834,-73.9662,284.65,86,100,4.63,US,1700667736
111,wenchang,30.904,118.4887,289.63,69,98,1.31,CN,1700668012
112,bellavista,-7.0561,-76.5911,303.86,70,20,2.57,PE,1700668012
113,longyearbyen,78.2186,15.6401,275.06,69,40,13.89,SJ,1700668013
114,salinopolis,-0.6136,-47.3561,303.26,66,29,5.69,BR,1700668014
115,axim,4.8699,-2.2405,301.65,73,39,4.55,GH,1700668015
116,takaungu,-3.6837,39.8566,301.42,84,16,3.56,KE,1700668015
117,petropavlovsk-kamchatsky,53.0452,158.6483,269.48,73,20,10.28,RU,1700668016
118,ribeira brava,32.65,-17.0667,297.43,72,88,3.45,PT,1700668017
119,enewetak,11.3474,162.3373,300.46,77,57,6.37,MH,1700668018
120,castlegar,49.2998,-117.6689,274.53,94,72,0.83,CA,1700668018
121,aykhal,66.0,111.5,247.74,94,100,2.36,RU,1700668019
122,hailin,44.5833,129.4167,271.85,98,100,1.29,CN,1700668020
123,nueva imperial,-38.7333,-72.95,287.51,47,89,2.28,CL,1700667988
124,avarua,-21.2078,-159.775,294.18,78,100,2.06,CK,1700668021
125,parauna,-16.9478,-50.4486,305.12,40,68,2.43,BR,1700668022
126,ust-nera,64.5667,143.2,243.31,98,100,1.61,RU,1700668023
127,iskateley,67.6803,53.1512,255.94,92,100,4.02,RU,1700668024
128,rio preto da eva,-2.6994,-59.6997,309.93,38,72,2.17,BR,1700668025
129,rio grande,-32.035,-52.0986,292.21,89,100,4.75,BR,1700667754
130,port mathurin,-19.6833,63.4167,298.49,76,84,8.06,MU,1700668027
131,kingston,17.997,-76.7936,304.95,72,20,1.54,JM,1700667881
132,labrador city,52.9463,-66.9114,267.1,86,100,7.2,CA,1700667913
133,olonkinbyen,70.9221,-8.7187,265.41,68,100,20.13,SJ,1700668030
134,remire-montjoly,4.9167,-52.2667,305.17,62,75,6.17,GF,1700668030
135,swellendam,-34.0226,20.4417,301.57,30,0,6.98,ZA,1700668031
136,punta arenas,-53.15,-70.9167,283.21,46,40,13.38,CL,1700668010
137,twin falls,42.3505,-114.6445,271.34,69,0,2.57,US,1700668033
138,mournies,35.4764,24.0092,293.37,73,20,0.0,GR,1700668034
139,isabela,6.7085,121.9711,299.18,88,85,2.36,PH,1700668034
140,whangarei,-35.7317,174.3239,287.11,98,66,1.06,NZ,1700668035
141,chernyshevskiy,63.0128,112.4714,238.57,100,81,1.21,RU,1700668036
142,kouroussa,10.65,-9.8833,308.77,14,18,0.67,GN,1700668037
143,paramonga,-10.6667,-77.8333,294.5,78,73,4.77,PE,1700668038
144,mariinsk,56.2139,87.7472,262.03,68,86,6.06,RU,1700668039
145,kiffa,16.6166,-11.4045,307.9,8,17,6.29,MR,1700668039
146,tsiombe,-25.3,45.4833,299.59,66,0,4.15,MG,1700668040
147,ta`u,-14.2336,-169.5144,299.71,79,91,6.45,AS,1700668041
148,thunder bay,48.4001,-89.3168,271.14,64,75,3.09,CA,1700667985
149,sao paulo de olivenca,-3.3783,-68.8725,305.83,54,100,1.4,BR,1700668043
150,kodiak,57.79,-152.4072,276.88,100,100,9.26,US,1700667860
151,stanley,54.868,-1.6985,284.55,86,75,7.72,GB,1700668045
152,le vauclin,14.5452,-60.8388,303.18,58,20,4.63,MQ,1700668046
153,mount pearl,47.5166,-52.7813,273.89,77,40,6.69,CA,1700668047
154,jamestown,42.097,-79.2353,279.92,99,100,5.66,US,1700667998
155,port elizabeth,-33.918,25.5701,299.31,47,0,3.09,ZA,1700667955
156,port lincoln,-34.7333,135.8667,287.05,81,16,7.7,AU,1700668050
157,kasane,-17.8167,25.15,302.2,51,0,2.57,BW,1700668050
158,lerwick,60.1545,-1.1494,283.15,78,100,13.21,GB,1700668051
159,baker city,44.7749,-117.8344,277.95,86,100,1.54,US,1700668052
160,dunedin,-45.8742,170.5036,286.93,97,57,1.47,NZ,1700668053
161,karratha,-20.7377,116.8463,303.42,43,2,6.13,AU,1700668054
162,jiagedaqi,50.4167,124.1167,260.84,62,100,4.06,CN,1700668055
163,lihue,21.9789,-159.3672,296.13,89,64,4.77,US,1700667756
164,badger,64.8,-147.5333,255.29,83,0,0.0,US,1700668056
165,geraldton,-28.7667,114.6,293.38,88,14,1.54,AU,1700668054
166,fort st. john,56.2499,-120.8529,263.09,92,100,1.03,CA,1700667835
167,pacific grove,36.6177,-121.9166,291.84,49,0,0.0,US,1700668015
168,mendeleyevsk,55.9082,52.2905,265.73,94,100,6.75,RU,1700668059
169,kuala tungkal,-0.8167,103.4667,297.63,92,100,1.76,ID,1700668060
170,kununurra,-15.7667,128.7333,300.14,83,92,2.06,AU,1700668060
171,wailua homesteads,22.0669,-159.378,295.23,89,63,1.34,US,1700668061
172,cabo san lucas,22.8909,-109.9124,299.55,50,0,0.89,MX,1700668042
173,labytnangi,66.6572,66.4183,255.08,96,100,6.37,RU,1700668063
174,mahina,-17.5065,-149.489,298.02,88,40,1.54,PF,1700668063
175,antonio enes,-16.2325,39.9086,300.36,82,28,6.84,MZ,1700668064
176,puerto baquerizo moreno,-0.9,-89.6,298.7,83,75,2.06,EC,1700668065
177,ovalle,-30.5983,-71.2003,300.12,30,0,2.68,CL,1700668066
178,flin flon,54.7682,-101.865,259.06,78,40,4.12,CA,1700668066
179,moranbah,-22.0016,148.0466,295.43,86,90,4.31,AU,1700668068
180,mayahi,13.9553,7.6712,304.24,16,100,0.54,NE,1700668069
181,bondo,3.8146,23.6866,296.61,95,83,0.58,CD,1700668069
182,ha'il,27.5219,41.6907,292.16,55,40,5.14,SA,1700668070
183,arawa,-6.2132,155.5367,298.1,92,96,1.29,PG,1700668071
184,kolonia,50.9333,6.95,280.35,63,0,1.54,DE,1700668072
185,kaba,47.35,21.2833,275.27,71,18,6.8,HU,1700668072
186,hamilton,39.1834,-84.5333,280.43,85,100,4.12,US,1700667947
187,al minya,28.1099,30.7503,294.74,33,92,1.88,EG,1700668074
188,cobija,-11.0267,-68.7692,304.25,66,40,7.72,BO,1700668075
189,waddan,29.1614,16.139,295.59,23,0,4.82,LY,1700668075
190,touros,-5.1989,-35.4608,302.21,62,75,7.18,BR,1700667957
191,hawaiian paradise park,19.5933,-154.9731,295.39,98,100,1.54,US,1700668077
192,banda aceh,5.5577,95.3222,299.39,83,100,1.37,ID,1700668078
193,castillos,-34.1667,-53.8333,292.96,49,100,4.14,UY,1700668078
194,portland,45.5234,-122.6762,283.21,94,100,2.57,US,1700667426
195,udachny,66.4167,112.4,249.51,76,100,1.82,RU,1700668081
196,weno,7.4515,151.8468,301.7,73,86,6.76,FM,1700668081
197,saudarkrokur,65.7461,-19.6394,272.49,81,20,7.92,IS,1700668082
198,fort bragg,35.139,-79.006,290.06,94,100,2.06,US,1700668083
199,kolonia town,6.964,158.206,301.6,77,32,5.79,FM,1700668084
200,gwadar,25.1216,62.3254,298.98,76,2,6.36,PK,1700667860
201,aasiaat,68.7098,-52.8699,263.76,84,98,5.35,GL,1700668085
202,itoman,26.1247,127.6694,294.16,78,5,1.54,JP,1700668086
203,sola,-13.8833,167.55,299.13,73,100,7.55,VU,1700668087
204,darwin,-12.4611,130.8418,299.14,89,8,0.0,AU,1700668048
205,baciu,46.8,23.5167,277.61,93,75,4.12,RO,1700668089
206,carnarvon,-24.8667,113.6333,295.67,84,45,5.68,AU,1700668089
207,camana,-16.6228,-72.7111,295.35,70,29,4.77,PE,1700668090
208,fale old settlement,-9.3852,-171.2468,301.67,75,100,3.97,TK,1700668091
209,mahanoro,-19.9,48.8,298.2,83,72,1.66,MG,1700668092
210,ixtapa,20.7,-105.2,299.39,100,75,1.79,MX,1700668093
211,jayapura,-2.5333,140.7,298.81,92,88,2.2,ID,1700668093
212,mudanjiang,44.5833,129.6,272.47,98,100,1.18,CN,1700668094
213,tisul',55.7611,88.3122,261.44,74,64,6.75,RU,1700668095
214,nadi,-17.8,177.4167,295.15,88,20,2.06,FJ,1700668096
215,iqaluit,63.7506,-68.5145,272.0,74,100,12.86,CA,1700668097
216,caibarien,22.5206,-79.4669,299.77,77,41,5.99,CU,1700667914
217,kaspiysk,42.8816,47.6392,283.72,93,6,3.0,RU,1700668098
218,igarka,67.4667,86.5833,242.61,99,59,2.68,RU,1700668099
219,paracale,14.2804,122.7881,298.72,92,94,3.1,PH,1700668100
220,murehwa,-17.6432,31.784,298.99,40,55,2.06,ZW,1700668101
221,guerrero negro,27.9769,-114.0611,293.7,42,0,1.77,MX,1700667947
222,tchibanga,-2.85,11.0333,298.34,92,73,2.12,GA,1700668102
223,behompy,-23.2496,43.8557,299.59,68,0,2.24,MG,1700668103
224,paracuru,-3.41,-39.0306,302.1,53,13,7.11,BR,1700668104
225,hirara,24.8,125.2833,293.07,88,20,2.06,JP,1700668105
226,kourou,5.1552,-52.6478,305.18,62,20,4.73,GF,1700668106
227,daru,-9.0763,143.2092,299.36,89,40,4.44,PG,1700668106
228,baragua,21.6967,-78.6328,302.92,56,13,4.9,CU,1700668107
229,ulsteinvik,62.3432,5.8487,280.55,82,99,8.49,NO,1700668108
230,kannod,22.6667,76.7333,294.42,46,0,1.82,IN,1700668109
231,goundam,16.4145,-3.6708,306.43,10,97,3.33,ML,1700668109
232,umea,63.8284,20.2597,273.66,100,100,7.2,SE,1700668100
233,rongelap,11.1635,166.8941,300.72,69,30,7.69,MH,1700668111
234,lepsy,46.235,78.9456,279.7,47,35,2.66,KZ,1700668112
235,karoi,-16.8099,29.6925,299.69,46,33,1.95,ZW,1700668113
236,vadso,70.0744,29.7487,266.24,79,75,9.77,NO,1700668114
237,medicine hat,50.0501,-110.6683,273.39,62,100,0.0,CA,1700667993
238,leava,-14.3,-178.1667,301.1,74,56,7.09,WF,1700668116
239,tchollire,8.4022,14.1698,305.12,25,90,0.12,CM,1700668117
240,meadow lake,34.8014,-106.5436,281.72,50,1,2.32,US,1700668118
241,sour el ghozlane,36.1477,3.6912,280.65,82,98,11.52,DZ,1700668119
242,guaratuba,-25.8828,-48.5747,302.16,79,61,2.79,BR,1700668119
243,tazovsky,67.4667,78.7,246.98,100,94,3.92,RU,1700668120
244,dalnegorsk,44.5604,135.5701,277.37,99,100,0.89,RU,1700668121
245,maitum,6.0392,124.4986,299.45,87,14,1.76,PH,1700668122
246,ramadi,33.4226,43.3058,289.2,35,95,2.58,IQ,1700668123
247,mogocha,53.7333,119.7667,253.81,89,98,1.52,RU,1700668123
248,new norfolk,-42.7826,147.0587,282.87,96,4,1.09,AU,1700668124
249,tinajo,29.0788,-13.7081,296.64,57,20,6.17,ES,1700668125
250,samdari,25.8167,72.5833,295.6,22,0,1.23,IN,1700668127
251,progreso,21.2833,-89.6667,302.1,64,11,4.35,MX,1700668128
252,sao vicente,-23.9631,-46.3919,308.86,66,0,4.63,BR,1700668128
253,kerikeri,-35.2268,173.9474,289.21,92,80,1.9,NZ,1700668129
254,afaahiti,-17.75,-149.2833,297.08,88,71,8.82,PF,1700668130
255,mendi,-6.1761,143.6513,286.19,98,82,1.45,PG,1700668047
256,mount sterling,38.0565,-83.9433,278.87,94,100,2.06,US,1700668133
257,kaffrine,14.1059,-15.5508,310.63,7,100,5.88,SN,1700668134
258,suzemka,52.3178,34.0689,266.22,55,21,3.01,RU,1700668134
259,richards bay,-28.783,32.0377,298.47,77,7,2.59,ZA,1700668135
260,tralee,52.2704,-9.7026,284.29,93,100,6.17,IE,1700668136
261,nova sintra,14.8667,-24.7167,297.67,69,100,5.56,CV,1700668137
262,nuku'alofa,-21.1333,-175.2,295.34,94,20,2.06,TO,1700668138
263,palmer,42.1584,-72.3287,281.11,86,100,5.66,US,1700668138
264,chos malal,-37.3781,-70.2709,293.76,22,1,5.32,AR,1700668139
265,primero de mayo,-32.2552,-58.4228,296.79,86,100,4.69,AR,1700668140
266,sandnessjoen,66.0217,12.6316,275.21,93,75,11.83,NO,1700668141
267,elassona,39.8947,22.1886,285.78,78,100,0.43,GR,1700668141
268,burang,30.25,81.1667,271.77,27,0,1.09,CN,1700668142
269,baoshan,46.5586,131.4244,267.29,96,100,4.47,CN,1700668143
270,marka,1.7159,44.7717,300.26,82,95,7.6,SO,1700668144
271,alice springs,-23.7,133.8833,290.9,82,95,2.57,AU,1700668145
272,sao felix do xingu,-6.6447,-51.995,303.61,64,99,0.64,BR,1700668146
273,polyarnyy,69.1989,33.4478,260.4,94,13,6.24,RU,1700668148
274,ulanhot,46.0833,122.0833,262.53,91,100,9.2,CN,1700668148
275,nejo,9.5,35.5,289.67,91,25,1.35,ET,1700668149
276,belomorsk,64.5232,34.7668,259.64,98,64,2.94,RU,1700668150
277,atafu village,-8.5421,-172.5159,301.92,75,100,3.76,TK,1700668151
278,arno,60.1167,18.6333,274.14,96,100,11.85,SE,1700668151
279,tura,25.5198,90.2201,290.2,66,0,1.55,IN,1700668152
280,kushikino,31.7167,130.2667,287.64,83,1,2.44,JP,1700668153
281,la'ie,21.6477,-157.9253,296.73,91,41,4.02,US,1700668154
282,nar'yan-mar,67.6713,53.087,255.99,92,100,4.02,RU,1700668155
283,punta del este,-34.9667,-54.95,294.21,57,0,6.69,UY,1700668155
284,sinabang,2.4803,96.3801,298.69,81,99,0.89,ID,1700668156
285,kristiansund,63.1115,7.732,280.18,75,75,8.23,NO,1700668157
286,point pedro,9.8167,80.2333,299.14,86,99,3.01,LK,1700668158
287,kempsey,-31.0833,152.8333,293.12,87,100,0.45,AU,1700668159
288,mme-bafumen,6.3333,10.2333,294.56,71,73,0.6,CM,1700668160
289,quelimane,-17.8786,36.8883,304.12,58,20,8.94,MZ,1700668160
290,timbiqui,2.7717,-77.6654,301.78,73,60,1.64,CO,1700668161
291,yunfu,22.9306,112.0373,293.69,76,97,0.44,CN,1700668162
292,mar del plata,-38.0023,-57.5575,298.05,39,0,4.47,AR,1700668137
293,zouerate,22.7187,-12.4521,302.7,8,100,7.34,MR,1700668163
294,yuzhno-kurilsk,44.0306,145.8556,282.8,65,96,4.04,RU,1700668164
295,enkoping,59.6361,17.0777,275.07,96,100,9.81,SE,1700668165
296,codrington,-38.2667,141.9667,285.78,80,47,5.91,AU,1700668166
297,sao joao da barra,-21.6403,-41.0511,306.2,72,38,9.11,BR,1700668166
298,fallon,39.4735,-118.7774,267.08,79,40,0.0,US,1700667958
299,san luis de la loma,17.2706,-100.8939,301.33,74,8,1.59,MX,1700668168
300,fortaleza,-3.7227,-38.5247,305.22,60,40,9.26,BR,1700668086
301,kiunga,-6.1219,141.2906,296.52,94,48,0.28,PG,1700668169
302,manismata,-2.4667,111.0333,297.47,98,99,0.37,ID,1700668170
303,usakos,-22.0,15.6,306.62,18,67,11.49,NA,1700668171
304,masterton,-40.9597,175.6575,285.31,98,68,1.55,NZ,1700668172
305,constantia,44.1833,28.65,281.53,85,100,8.98,RO,1700668173
306,ebon,4.582,168.6964,301.0,79,19,5.55,MH,1700668174
307,ljusdal,61.8288,16.0913,276.07,96,100,6.56,SE,1700668175
308,huilong,31.8111,121.655,289.8,61,100,3.05,CN,1700668175
309,arsk,56.0915,49.8778,268.34,95,100,8.07,RU,1700668176
310,ciudad lazaro cardenas,17.9583,-102.2,301.07,69,95,1.78,MX,1700668095
311,northam,51.0333,-4.2167,286.85,96,100,4.88,GB,1700668178
312,portage la prairie,49.9728,-98.2926,270.99,70,100,5.14,CA,1700668180
313,adjumani,3.3779,31.7909,297.89,74,94,1.67,UG,1700668181
314,harper,4.375,-7.7169,301.57,74,78,4.36,LR,1700668181
315,kruisfontein,-34.0033,24.7314,296.63,36,0,3.73,ZA,1700668182
316,mount gambier,-37.8333,140.7667,283.65,87,3,4.38,AU,1700668001
317,kachug,53.9606,105.8817,252.84,97,62,1.22,RU,1700668184
318,merritt island,28.5392,-80.672,300.93,69,0,6.69,US,1700668184
319,cadale,2.7603,46.3222,301.19,77,100,7.2,SO,1700668185
320,abashiri,44.0213,144.2697,279.18,90,78,2.96,JP,1700668186
321,el jadid,33.2549,-8.506,292.12,59,0,7.08,MA,1700668187
322,jibou,47.2667,23.25,277.77,85,59,2.4,RO,1700668188
323,wewak,-3.5534,143.6268,299.93,87,100,2.47,PG,1700668189
324,banamba,13.55,-7.45,308.63,7,83,2.51,ML,1700668189
325,amga,60.8953,131.9608,246.84,95,100,2.92,RU,1700668190
326,mbanza kongo,-6.267,14.2401,298.69,86,97,1.07,AO,1700668191
327,obo,5.3998,26.4869,298.77,73,99,0.85,CF,1700668192
328,kirkwall,58.9848,-2.9587,283.69,93,75,12.86,GB,1700668193
329,silao,20.9333,-101.4333,284.36,71,100,3.09,MX,1700667950
330,crucecita,-28.95,-58.9833,295.15,88,100,4.66,AR,1700668194
331,tenenkou,14.4572,-4.9169,308.85,10,100,1.77,ML,1700668195
332,san patricio,28.017,-97.5169,286.07,35,100,5.16,US,1700668196
333,forster,-32.1667,152.5167,291.09,100,90,2.41,AU,1700668196
334,aripuana,-9.1667,-60.6333,307.65,44,99,1.98,BR,1700668197
335,gadzhiyevo,69.2551,33.3362,259.57,97,32,5.81,RU,1700668198
336,katsuura,35.1333,140.3,292.08,82,26,5.21,JP,1700668199
337,talara,-4.5772,-81.2719,303.57,51,0,9.26,PE,1700668199
338,juan griego,11.0817,-63.9655,302.41,68,82,5.42,VE,1700668200
339,faya-largeau,17.9257,19.1043,305.09,17,0,0.0,TD,1700668201
340,bitkine,11.9801,18.2138,305.6,20,60,3.43,TD,1700668202
341,tefe,-3.3542,-64.7114,304.21,66,40,0.0,BR,1700668204
342,fengtai,39.5581,117.7492,279.44,41,22,1.45,CN,1700668204
343,qamdo,31.1667,97.2333,267.45,22,56,1.63,CN,1700668205
344,gebeit,21.0667,36.3167,298.31,62,35,5.18,SD,1700668206
345,prainha,-1.8,-53.48,306.81,46,43,3.13,BR,1700668207
346,shahr-e babak,30.1165,55.1186,285.05,35,2,1.44,IR,1700668208
347,minas de marcona,-15.2119,-75.1103,293.36,58,85,6.1,PE,1700668208
348,ma'rib,15.4591,45.3253,299.35,29,30,2.05,YE,1700668209
349,fortuna,40.5982,-124.1573,277.34,100,0,5.66,US,1700668210
350,plastun,44.7561,136.2939,275.09,97,100,1.35,RU,1700668211
351,mansehra,34.3333,73.2,286.89,30,2,1.76,PK,1700668212
352,margate,51.3813,1.3862,282.54,76,100,2.68,GB,1700668212
353,pacasmayo,-7.4006,-79.5714,295.31,75,91,5.39,PE,1700668213
354,acarau,-2.8856,-40.12,305.29,52,0,9.46,BR,1700668214
355,walvis bay,-22.9575,14.5053,292.64,55,25,10.81,NA,1700668215
356,neryungri,56.6709,124.6491,249.87,91,100,4.22,RU,1700668216
357,utrik,11.2278,169.8474,300.75,74,88,8.26,MH,1700668216
358,mount darwin,-16.7725,31.5838,302.75,38,62,1.93,ZW,1700668217
359,kuta,-8.7233,115.1723,301.12,94,20,1.54,ID,1700668218
360,tual,-5.6667,132.75,301.56,79,79,5.27,ID,1700668219
361,khanty-mansiysk,61.0042,69.0019,264.21,67,0,8.05,RU,1700668220
362,abepura,-2.6333,140.5833,298.6,94,20,1.54,ID,1700668220
363,cururupu,-1.8283,-44.8683,304.44,60,37,4.46,BR,1700668221
364,timimoun,29.2639,0.231,295.36,24,0,5.66,DZ,1700668222
365,kiama,-34.6833,150.8667,292.36,91,100,0.89,AU,1700668223
366,funafuti,-8.5243,179.1942,302.15,84,20,3.09,TV,1700668224
367,thinadhoo,0.5333,72.9333,300.86,77,85,2.63,MV,1700668224
368,hadibu,12.65,54.0333,300.09,73,7,5.32,YE,1700668225
369,balqash,46.8481,74.995,278.01,71,100,2.11,KZ,1700668226
370,al hufuf,25.3646,49.5653,296.34,46,0,5.14,SA,1700668227
371,lagoa,39.05,-27.9833,290.95,85,91,10.52,PT,1700668227
372,vilyuchinsk,52.9306,158.4028,270.3,77,24,8.22,RU,1700668228
373,yemel'yanovo,56.1681,92.6767,257.64,77,0,0.0,RU,1700668229
374,novoagansk,61.9449,76.6625,264.17,81,100,6.32,RU,1700668230
375,campo gallo,-26.5833,-62.85,301.46,62,100,5.46,AR,1700668230
376,phalaborwa,-23.943,31.1411,311.75,22,28,4.08,ZA,1700668231
377,santa ana,33.7456,-117.8678,295.11,30,40,2.06,US,1700667765
378,bedesa,8.9,40.7833,292.56,69,77,2.09,ET,1700668233
379,hithadhoo,-0.6,73.0833,301.01,78,77,3.17,MV,1700668233
380,maralal,1.0968,36.698,289.74,84,77,3.58,KE,1700668234
381,huadian,42.9633,126.7478,273.39,86,100,6.7,CN,1700668235
382,tulun,54.5611,100.5792,254.07,97,25,0.83,RU,1700668236
383,erenhot,43.6475,111.9767,260.26,66,91,8.88,CN,1700668236
384,namtsy,62.7161,129.6658,245.55,93,100,3.2,RU,1700668237
385,gizo,-8.103,156.8419,300.75,80,81,5.14,SB,1700668238
386,homer,59.6425,-151.5483,271.09,86,100,0.0,US,1700668239
387,mejit,10.2753,170.8646,300.61,77,18,9.55,MH,1700668239
388,arraial do cabo,-22.9661,-42.0278,306.13,66,0,9.77,BR,1700668240
389,usinsk,65.9939,57.5281,262.63,83,100,5.81,RU,1700668241
390,mizdah,31.4451,12.9801,291.62,31,24,7.77,LY,1700668242
391,makary,12.5717,14.4666,300.63,30,100,4.02,CM,1700668242
392,laguna,38.421,-121.4238,288.16,93,0,0.0,US,1700668243
393,tupaciguara,-18.5922,-48.705,303.81,40,85,2.37,BR,1700668244
394,mariupol,47.0667,37.5,273.68,71,100,3.77,UA,1700668245
395,dukhan,25.4297,50.7858,296.48,62,62,8.96,QA,1700668246
396,vernon,50.2581,-119.2691,276.27,88,99,0.51,CA,1700668246
397,kone,-21.0595,164.8658,294.95,78,77,2.1,NC,1700668247
398,jinchang,38.4953,102.1739,268.96,40,5,2.02,CN,1700668248
399,port hedland,-20.3167,118.5667,300.18,50,19,4.12,AU,1700668249
400,torghay,49.6339,63.4981,275.92,92,100,10.56,KZ,1700668249
401,namibe,-15.1961,12.1522,298.37,70,100,7.07,AO,1700668250
402,millerovo,48.9226,40.3967,266.88,69,32,3.73,RU,1700668251
403,barauli,26.4,84.5833,293.36,36,0,2.3,IN,1700668252
404,uturoa,-16.7333,-151.4333,299.47,82,40,7.68,PF,1700668252
405,nishinoomote,30.7333,131.0,293.81,68,0,2.46,JP,1700668253
406,kavieng,-2.5744,150.7967,300.15,81,84,1.39,PG,1700668254
407,al muwayh,22.4333,41.7583,300.41,32,71,10.04,SA,1700668254
408,sechura,-5.5569,-80.8222,298.79,62,59,3.69,PE,1700668255
409,ambon,-3.6954,128.1814,298.23,94,40,2.57,ID,1700668256
410,shingu,33.7333,135.9833,284.35,88,4,2.13,JP,1700668257
411,ketchikan,55.3422,-131.6461,279.14,93,100,2.06,US,1700668257
412,jaguarari,-10.2639,-40.1958,306.05,29,100,4.03,BR,1700668258
413,gijon,43.5357,-5.6615,287.04,89,89,6.26,ES,1700668259
414,nellikkuppam,11.7667,79.6833,299.26,85,94,2.37,IN,1700668260
415,kapit,2.0167,112.9333,296.96,99,100,1.08,MY,1700668260
416,prado,-17.3411,-39.2208,301.55,61,6,6.36,BR,1700668261
417,kalsdorf bei graz,46.961,15.4723,280.57,68,20,2.57,AT,1700668262
418,saint-francois,46.4154,3.9054,279.84,66,0,5.14,FR,1700668263
419,palikir - national government center,6.9248,158.1611,301.01,78,32,5.8,FM,1700668264
420,tacuarembo,-31.7333,-55.9833,291.39,94,100,5.15,UY,1700668264
421,chanderi,24.7167,78.1333,291.76,39,1,2.42,IN,1700668265
422,blonie,52.1985,20.6171,271.23,76,11,0.45,PL,1700668266
423,dryden,49.7833,-92.7503,268.31,86,75,2.57,CA,1700668267
424,raseiniai,55.3736,23.1217,268.36,86,82,2.91,LT,1700668268
425,mitu,1.1983,-70.1733,303.2,62,100,1.52,CO,1700668269
426,labuan,5.2767,115.2417,300.35,89,20,2.06,MY,1700668269
427,hami,42.8,93.45,274.51,32,9,2.45,CN,1700668270
428,rio hato,8.3833,-80.1667,299.9,83,40,1.54,PA,1700668271
429,macaubas,-13.0194,-42.6986,309.24,21,44,1.61,BR,1700668272
430,bykovo,55.6361,38.0803,266.29,72,75,8.0,RU,1700668273
431,rantoul,40.3084,-88.1559,278.7,95,100,4.63,US,1700668256
432,flying fish cove,-10.4217,105.6791,299.59,77,98,7.73,CX,1700668274
433,el granada,37.5027,-122.4694,289.21,61,0,0.45,US,1700668275
434,inari,68.906,27.0288,263.26,84,100,5.64,FI,1700668277
435,mocimboa,-11.3167,40.35,300.56,77,99,4.47,MZ,1700668278
436,gunnison,38.7,-107.0673,261.62,45,98,0.47,US,1700668279
437,abong mbang,3.9833,13.1833,295.96,84,100,1.14,CM,1700668280
438,pathein,16.7833,94.7333,297.28,92,10,2.56,MM,1700668281
439,santo domingo petapa,16.8181,-95.1403,293.45,69,50,7.39,MX,1700668282
440,parthenay,46.6667,-0.4167,282.81,71,23,5.69,FR,1700668283
441,chunskiy,56.0815,99.6342,253.76,100,39,0.65,RU,1700668284
442,owerri,5.4833,7.0304,300.09,82,99,3.25,NG,1700668285
443,olympia,47.0379,-122.9007,282.55,98,100,0.77,US,1700668285
444,vila velha,-20.3297,-40.2925,304.12,68,0,8.23,BR,1700668286
445,nurabad,34.0734,47.9725,277.93,42,28,0.24,IR,1700668287
446,kamaishi,39.2667,141.8833,284.65,73,0,3.37,JP,1700668288
447,howrah,22.5892,88.3103,296.15,64,0,0.0,IN,1700668289
448,antofagasta,-23.65,-70.4,292.75,62,61,4.12,CL,1700668290
449,tvoroyri,61.5556,-6.8111,280.14,79,99,16.52,FO,1700668290
450,grand falls-windsor,48.9332,-55.6649,271.76,73,28,1.68,CA,1700668291
451,enriquillo,17.9,-71.2333,302.97,62,0,5.28,DO,1700668292
452,pollock pines,38.7613,-120.5866,284.4,36,0,2.57,US,1700668293
453,dauphin,51.1494,-100.0502,268.23,74,75,4.12,CA,1700668294
454,mazagao,-0.115,-51.2894,307.18,45,29,3.36,BR,1700668294
455,kalix,65.853,23.1565,271.81,96,100,11.96,SE,1700668295
456,hastings,50.8552,0.5729,284.42,80,100,5.62,GB,1700668091
457,fort portal,0.6617,30.2748,290.3,98,94,1.38,UG,1700668297
458,mugia,43.1041,-9.2179,289.77,72,12,10.39,ES,1700668298
459,nagqu,31.5,92.0,264.83,35,0,0.67,CN,1700668299
460,najran,17.4924,44.1277,299.51,35,31,4.9,SA,1700668300
461,lodwar,3.1191,35.5973,304.85,41,97,7.38,KE,1700668300
462,xiva,41.3783,60.3639,284.14,60,69,8.41,UZ,1700668302
463,okahao,-17.885,15.0667,309.01,18,92,2.15,NA,1700668303
464,bam,29.106,58.357,289.08,31,0,5.31,IR,1700668304
465,rodolfo sanchez taboada,31.7167,-116.5667,292.47,33,92,2.94,MX,1700668304
466,trincomalee,8.5711,81.2335,300.43,81,100,3.54,LK,1700668305
467,tidjikja,18.5564,-11.4271,304.23,8,84,6.03,MR,1700668306
468,korla,41.7597,86.1469,277.45,49,7,3.25,CN,1700668307
469,antalaha,-14.9003,50.2788,298.8,80,82,4.64,MG,1700668307
470,murghob,38.1702,73.9667,268.95,32,0,2.12,TJ,1700668308
471,alaghsas,17.0187,8.0168,305.09,13,99,3.09,NE,1700668309
472,ola,59.5833,151.2833,256.42,71,99,5.69,RU,1700668310
473,turbana,10.2717,-75.4422,302.6,70,26,1.45,CO,1700668310
474,chinde,26.8418,88.0763,286.05,79,34,1.2,NP,1700668311
475,molina,-35.1167,-71.2833,293.91,51,0,4.12,CL,1700668312
476,san vicente,-26.6167,-54.1333,300.39,68,93,2.59,AR,1700668313
477,superior,46.7208,-92.1041,273.98,68,0,4.12,US,1700668220
478,ponta delgada,37.7333,-25.6667,291.55,82,20,8.75,PT,1700668254
479,la sarre,48.8002,-79.1996,270.64,86,96,2.55,CA,1700668315
480,markovo,57.3206,107.0881,254.25,90,100,2.56,RU,1700668316
481,lorengau,-2.0226,147.2712,300.25,80,21,1.93,PG,1700668316
482,menongue,-14.6585,17.691,303.97,28,68,3.44,AO,1700668317
483,naze,28.3667,129.4833,290.66,74,1,2.5,JP,1700668318
484,bakchar,57.0186,82.0711,263.89,62,100,4.28,RU,1700668319
485,tarasovskiy,48.7292,40.3636,267.45,69,64,3.65,RU,1700668319
486,chisec,15.8167,-90.2833,298.28,99,99,0.69,GT,1700668320
487,uige,-7.6087,15.0613,297.61,88,98,0.48,AO,1700668321
488,saveh,35.0213,50.3566,284.55,23,7,2.83,IR,1700668322
489,ciudad madero,22.2667,-97.8333,289.85,49,100,8.03,MX,1700668323
490,tindouf,27.6711,-8.1474,302.4,13,0,6.17,DZ,1700668323
491,nizhniy kuranakh,58.8353,125.4869,251.27,96,100,3.71,RU,1700668324
492,ouani,-12.1322,44.4258,301.01,80,100,2.51,KM,1700668325
493,nelson bay,-32.7167,152.15,293.15,98,98,2.68,AU,1700668326
494,taoudenni,22.6783,-3.9836,302.67,11,100,2.43,ML,1700668327
495,spring creek,40.7266,-115.5859,264.98,34,19,0.62,US,1700668119
496,trapani,37.8333,12.6667,287.75,88,40,2.06,IT,1700668066
497,chibougamau,49.9168,-74.3659,269.94,93,100,3.09,CA,1700668330
498,alesund,62.4723,6.1549,280.56,73,40,9.26,NO,1700668330
499,taulaga,-11.0553,-171.0883,301.08,73,73,4.89,AS,1700668331
500,qaqortoq,60.7167,-46.0333,261.88,68,0,3.27,GL,1700668332
501,paita,-5.0892,-81.1144,296.93,72,66,4.97,PE,1700668333
502,kapa'a,22.0752,-159.319,295.98,88,61,1.34,US,1700668086
503,urucara,-2.5364,-57.76,308.06,45,91,2.2,BR,1700668334
504,al mindak,20.1588,41.2834,293.93,73,96,1.16,SA,1700668335
505,catalhoyuk,37.6685,32.8269,284.27,56,83,3.87,TR,1700668336
506,tweed heads,-28.1817,153.547,294.26,93,75,0.0,AU,1700668337
507,bonthe,7.5264,-12.505,303.21,65,9,4.98,SL,1700668338
508,tobelo,1.7284,128.0095,300.82,84,66,3.47,ID,1700668339
509,dhuusamarreeb,5.535,46.3861,301.78,47,90,3.88,SO,1700668340
510,puerto aysen,-45.4,-72.7,280.27,100,100,1.85,CL,1700668341
511,kannus,63.9,23.9,270.61,92,100,7.59,FI,1700668342
512,peniche,39.3558,-9.3811,292.08,64,43,5.23,PT,1700668342
513,alpine,32.835,-116.7664,292.75,29,55,3.28,US,1700668343
514,maribor,46.5547,15.6467,279.84,77,20,3.09,SI,1700668174
515,chifeng,42.2683,118.9636,269.91,60,13,4.66,CN,1700668345
516,prince george,53.9166,-122.753,273.84,96,100,3.6,CA,1700668210
517,callao,-12.0667,-77.15,297.31,60,75,4.63,PE,1700668346
518,yaren,-0.5472,166.916,301.51,74,100,2.04,NR,1700668347
519,vallenar,-28.5708,-70.7581,300.73,25,0,3.81,CL,1700668348
520,jose panganiban,14.2906,122.6917,298.55,92,94,2.99,PH,1700668349
521,alingsas,57.9303,12.5335,278.96,93,100,9.79,SE,1700668350
522,sisimiut,66.9395,-53.6735,266.09,74,100,7.04,GL,1700668350
523,popondetta,-8.7537,148.2534,296.81,86,7,1.08,PG,1700668351
524,cookeville,36.1628,-85.5016,278.99,93,100,2.57,US,1700668352
525,santa terezinha,-29.9002,-50.0904,294.63,97,100,3.0,BR,1700668353
526,harda khas,22.3333,77.1,295.08,48,0,1.33,IN,1700668353
527,haiku-pauwela,20.9219,-156.3051,296.51,97,20,6.17,US,1700668354
528,mana,5.6592,-53.7767,303.97,64,68,4.92,GF,1700668355
529,rurrenabaque,-14.4413,-67.5278,304.98,55,40,6.17,BO,1700668356
530,coshocton,40.272,-81.8596,280.34,89,100,2.68,US,1700668356
531,gerash,27.6652,54.1371,291.23,38,1,2.55,IR,1700668357
532,hurricane,37.1753,-113.2899,281.26,31,44,1.42,US,1700668358
533,island harbour,50.724,-1.2758,285.33,86,100,1.34,GB,1700668359
534,erechim,-27.6342,-52.2739,298.23,85,80,5.42,BR,1700668359
535,bhimunipatnam,17.8833,83.4333,299.88,83,95,1.84,IN,1700668360
536,rumphi,-11.0186,33.8575,300.51,41,9,2.96,MW,1700668362
537,amos,48.5669,-78.1162,271.16,86,100,2.61,CA,1700668362
538,taungdwingyi,20.0167,95.55,295.11,74,35,1.82,MM,1700668363
539,teulada,38.7294,0.1038,291.15,36,0,3.13,ES,1700668364
540,kosh-agach,50.0,88.6667,256.1,72,27,0.45,RU,1700668365
541,buala,-8.145,159.5921,299.43,82,100,2.04,SB,1700668366
542,swakopmund,-22.6833,14.5333,292.58,78,39,3.58,NA,1700668366
543,santa helena de goias,-17.8136,-50.5969,308.58,32,81,4.05,BR,1700668367
544,dahlonega,34.5326,-83.9849,284.87,91,76,5.55,US,1700668368
545,marondera,-18.1853,31.5519,294.93,49,88,3.21,ZW,1700668148
546,kaa-khem,51.6833,94.7333,250.53,90,31,1.77,RU,1700668370
547,baiao,-2.7906,-49.6717,302.9,57,91,0.25,BR,1700668371
548,merizo village,13.2658,144.6691,301.46,89,40,6.07,GU,1700668371
549,patan,27.6667,85.3333,287.36,82,20,1.03,NP,1700668372
550,yanam,16.7333,82.2167,298.13,87,100,2.4,IN,1700668373
551,port moresby,-9.4431,147.1797,298.83,89,40,2.57,PG,1700668374
552,gulf shores,30.246,-87.7008,287.23,72,75,5.14,US,1700668374
553,kegeyli shahar,42.7767,59.6078,281.2,43,92,8.75,UZ,1700668375
554,juneau,58.3019,-134.4197,277.15,97,100,4.12,US,1700668205
555,la ronge,55.1001,-105.2842,259.29,72,20,3.09,CA,1700668377
556,macapa,0.0389,-51.0664,307.14,55,40,6.17,BR,1700668378
557,kargasok,59.0556,80.8572,263.69,84,100,4.02,RU,1700668379
558,carsamba,41.1989,36.7219,290.01,36,0,2.57,TR,1700668379
559,glendive,47.1053,-104.7125,281.94,42,0,6.17,US,1700668380
560,crane,31.3974,-102.3501,284.04,29,0,2.58,US,1700668381
561,peace river,56.2501,-117.286,263.51,97,75,1.54,CA,1700668382
562,beratzhausen,49.0967,11.8083,275.56,81,100,0.0,DE,1700668382
563,berdigestyakh,62.0989,126.6992,245.65,95,100,3.76,RU,1700668383
564,lindi,-10.0,39.7167,298.12,91,100,3.14,TZ,1700668385
565,celestun,20.8667,-90.4,300.81,67,7,4.52,MX,1700668386
566,poyarkovo,49.6,128.6833,260.94,74,100,6.76,RU,1700668387
567,wanning,18.8003,110.3967,296.7,81,85,2.56,CN,1700668388
568,upington,-28.4478,21.2561,311.36,12,0,4.12,ZA,1700668389
569,chebarkul',54.9749,60.3633,269.02,95,100,0.57,RU,1700668390
570,port shepstone,-30.7414,30.455,296.34,86,2,2.3,ZA,1700668391
571,vilyuysk,63.7553,121.6247,239.98,98,87,2.06,RU,1700668392
572,sinnar,13.5691,33.5672,305.7,31,100,3.29,SD,1700668393
573,yetkul',54.8221,61.588,271.88,98,100,2.81,RU,1700668393
574,castelnuovo del garda,45.4388,10.7598,288.18,59,0,1.03,IT,1700668394
575,kampene,-3.6,26.6667,294.69,98,98,1.21,CD,1700668395
576,constitucion,-35.3333,-72.4167,290.28,54,96,7.34,CL,1700668396
577,liminka,64.8099,25.4155,268.68,84,100,8.75,FI,1700668397
